{"type": "FeatureCollection", "features": [{"type": "Feature", "properties": {"name": "Acton Town Station", "description": "Acton Town Station, London Underground Ltd., Gunnersbury Lane, London, W3 8HN", "styleUrl": "#tubeStyle"}, "geometry": {"type": "Point", "coordinates": [-0.2802512035361106, 51.50274977300057, 0.0]}}, {"type": "Feature", "properties": {"name": "Aldgate Station", "description": "Aldgate Station, London Underground Ltd., Aldgate High St, London, EC3N 1AH", "styleUrl": "#tubeStyle"}, "geometry": {"type": "Point", "coordinates": [-0.0756141844777496, 51.51427182308339, 0.0]}}, {"type": "Feature", "properties": {"name": "Aldgate East Station", "description": "Aldgate East Station, London Underground Ltd., Whitechapel High St, London, E1 7PT", "styleUrl": "#tubeStyle"}, "geometry": {"type": "Point", "coordinates": [-0.07228711997536542, 51.51523341379648, 0.0]}}, {"type": "Feature", "properties": {"name": "Alperton Station", "description": "Alperton Station, London Underground Ltd., Ealing Rd, Wembley, Middlesex, HA0 4LL", "styleUrl": "#tubeStyle"}, "geometry": {"type": "Point", "coordinates": [-0.29948653867861147, 51.54069476629347, 0.0]}}, {"type": "Feature", "properties": {"name": "Amersham Station", "description": "Amersham Station, Stn Approach, Amersham, Bucks HP6 5AZ", "styleUrl": "#tubeStyle"}, "geometry": {"type": "Point", "coordinates": [-0.607478839102469, 51.67414971062973, 0.0]}}, {"type": "Feature", "properties": {"name": "Angel Station", "description": "Angel Station, London Underground Ltd., City Rd, London, EC1V 1NE", "styleUrl": "#tubeStyle"}, "geometry": {"type": "Point", "coordinates": [-0.1057899136653053, 51.5324988689043, 0.0]}}, {"type": "Feature", "properties": {"name": "Archway Station", "description": "Archway Station, London Underground Ltd., Junction Rd, London, N19 5RQ", "styleUrl": "#tubeStyle"}, "geometry": {"type": "Point", "coordinates": [-0.13511351821033538, 51.56542675453375, 0.0]}}, {"type": "Feature", "properties": {"name": "Arnos Grove Station", "description": "Arnos Grove Station, London Underground Ltd., Bowes Rd, London, N11 1AN", "styleUrl": "#tubeStyle"}, "geometry": {"type": "Point", "coordinates": [-0.13351630958178007, 51.616340261056756, 0.0]}}, {"type": "Feature", "properties": {"name": "Arsenal Station", "description": "Arsenal Station, London Underground Ltd., Highbury Hill, London, N5 1LP", "styleUrl": "#tubeStyle"}, "geometry": {"type": "Point", "coordinates": [-0.10576198817555788, 51.55849876877668, 0.0]}}, {"type": "Feature", "properties": {"name": "Baker Street Station", "description": "Baker Street Station Marylebone Rd, London, NW1", "styleUrl": "#tubeStyle"}, "geometry": {"type": "Point", "coordinates": [-0.15690035605778088, 51.52306124814279, 0.0]}}, {"type": "Feature", "properties": {"name": "Balham Station", "description": "Balham Underground Station, London Underground Ltd., Balham High Rd, London, SW12 9BW", "styleUrl": "#tubeStyle"}, "geometry": {"type": "Point", "coordinates": [-0.15320755266647282, 51.44332897963525, 0.0]}}, {"type": "Feature", "properties": {"name": "Bank Station", "description": "Bank/Monument Complex, London Underground Ltd., Princes St, London, EC3V 3LA", "styleUrl": "#tubeStyle"}, "geometry": {"type": "Point", "coordinates": [-0.08891580904526, 51.513302371519345, 0.0]}}, {"type": "Feature", "properties": {"name": "Barbican Station", "description": "Barbican Station, London Underground Ltd., Aldersgate St, London, EC1A 4JA", "styleUrl": "#tubeStyle"}, "geometry": {"type": "Point", "coordinates": [-0.09771112321624831, 51.5201457253249, 0.0]}}, {"type": "Feature", "properties": {"name": "Barking Station", "description": "Barking Station BR Station Parade, Longbridge Rd, Barking, Essex, IG11 8TU", "styleUrl": "#tubeStyle"}, "geometry": {"type": "Point", "coordinates": [0.08086318284941044, 51.539451208515715, 0.0]}}, {"type": "Feature", "properties": {"name": "Barkingside Station", "description": "Barkingside Station, London Underground Ltd., Stn Rd, Barkingside, Milford, Essex, IG6 1NB", "styleUrl": "#tubeStyle"}, "geometry": {"type": "Point", "coordinates": [0.08851101382177928, 51.585785960390545, 0.0]}}, {"type": "Feature", "properties": {"name": "Barons Court Station", "description": "Barons Court Station, London Underground Ltd., Pallister Rd, London, W14", "styleUrl": "#tubeStyle"}, "geometry": {"type": "Point", "coordinates": [-0.21360685736108237, 51.490159942708935, 0.0]}}, {"type": "Feature", "properties": {"name": "Bayswater Station", "description": "Bayswater Station, London Underground Ltd., Queensway, London, W2 4QH", "styleUrl": "#tubeStyle"}, "geometry": {"type": "Point", "coordinates": [-0.18803826222161846, 51.51223305874106, 0.0]}}, {"type": "Feature", "properties": {"name": "Becontree Station", "description": "Becontree Station, London Underground Ltd., Gale St, Dagenham, Essex, RM9 4TP", "styleUrl": "#tubeStyle"}, "geometry": {"type": "Point", "coordinates": [0.12740032115528058, 51.5402885352047, 0.0]}}, {"type": "Feature", "properties": {"name": "Belsize Park Station", "description": "Belsize Park Station, London Underground Ltd., Haverstock Hill, London, NW3 2AL", "styleUrl": "#tubeStyle"}, "geometry": {"type": "Point", "coordinates": [-0.16423230633381805, 51.55042662771824, 0.0]}}, {"type": "Feature", "properties": {"name": "Bermondsey Station", "description": "Bermondsey Station, London Underground Ltd., 142 - 154 Jamaica Rd, London, SE16 4RX", "styleUrl": "#tubeStyle"}, "geometry": {"type": "Point", "coordinates": [-0.06365135091807925, 51.49794911958157, 0.0]}}, {"type": "Feature", "properties": {"name": "Bethnal Green Station", "description": "Bethnal Green Underground Station, London Underground Ltd., Cambridge Heath Rd, London, E2 0ET", "styleUrl": "#tubeStyle"}, "geometry": {"type": "Point", "coordinates": [-0.0554311171458843, 51.527195236069566, 0.0]}}, {"type": "Feature", "properties": {"name": "Blackfriars Station", "description": "Blackfriars Underground Station, London Underground Ltd., 179 Queen Victoria St, London, EC4V 4DD", "styleUrl": "#tubeStyle"}, "geometry": {"type": "Point", "coordinates": [-0.10360673121986262, 51.51149052224749, 0.0]}}, {"type": "Feature", "properties": {"name": "Blackhorse Road Station", "description": "Blackhorse Road Underground Station, London Underground Ltd., Blackhorse Rd, London, E17 6ND", "styleUrl": "#tubeStyle"}, "geometry": {"type": "Point", "coordinates": [-0.040996340920370744, 51.58695119543893, 0.0]}}, {"type": "Feature", "properties": {"name": "Bond Street Station", "description": "Bond Street Station, London Underground Ltd., Oxford St, London, W1R 1FE", "styleUrl": "#tubeStyle"}, "geometry": {"type": "Point", "coordinates": [-0.1493323545862023, 51.51380453538807, 0.0]}}, {"type": "Feature", "properties": {"name": "Borough Station", "description": "Borough Station, London Underground Ltd., Borough High St, London, SE1 1JX", "styleUrl": "#tubeStyle"}, "geometry": {"type": "Point", "coordinates": [-0.09370266475837344, 51.50119399892851, 0.0]}}, {"type": "Feature", "properties": {"name": "Boston Manor Station", "description": "Boston Manor Station, London Underground Ltd., Boston Manor Rd, Brentford, Middx, TW8 9LQ", "styleUrl": "#tubeStyle"}, "geometry": {"type": "Point", "coordinates": [-0.32476357379637405, 51.495696382188164, 0.0]}}, {"type": "Feature", "properties": {"name": "Bounds Green Station", "description": "Bounds Green Station, London Underground Ltd., Bounds Green Rd, London, N11 2EU", "styleUrl": "#tubeStyle"}, "geometry": {"type": "Point", "coordinates": [-0.12421896320853669, 51.607090556952755, 0.0]}}, {"type": "Feature", "properties": {"name": "Bow Road Station", "description": "Bow Road Station, London Underground Ltd., Bow Road, London, E3 4DH", "styleUrl": "#tubeStyle"}, "geometry": {"type": "Point", "coordinates": [-0.024823746874528683, 51.526800254826064, 0.0]}}, {"type": "Feature", "properties": {"name": "Brent Cross Station", "description": "Brent Cross Station, London Underground Ltd., Highfield Avenue, London, NW11 9UA", "styleUrl": "#tubeStyle"}, "geometry": {"type": "Point", "coordinates": [-0.2134558337553653, 51.57680047144387, 0.0]}}, {"type": "Feature", "properties": {"name": "Brixton Station", "description": "Brixton Underground Station, London Underground Ltd., Brixton Rd, London, SW9 8HE", "styleUrl": "#tubeStyle"}, "geometry": {"type": "Point", "coordinates": [-0.1146355815786156, 51.462581333631725, 0.0]}}, {"type": "Feature", "properties": {"name": "Buckhurst Hill Station", "description": "Buckhurst Hill Station, London Underground Ltd., Victoria Rd, Buckhurst Hill, Essex, IG9 5ET", "styleUrl": "#tubeStyle"}, "geometry": {"type": "Point", "coordinates": [0.04674385624049599, 51.626517330409435, 0.0]}}, {"type": "Feature", "properties": {"name": "Burnt Oak Station", "description": "Burnt Oak Station, London Underground Ltd., Watling Avenue, Edgware, Middx, HA8 0LA", "styleUrl": "#tubeStyle"}, "geometry": {"type": "Point", "coordinates": [-0.2641987581456301, 51.60268109970255, 0.0]}}, {"type": "Feature", "properties": {"name": "Caledonian Road Station", "description": "Caledonian Road Underground Station, London Underground Ltd., Caledonian Rd, London, N7 9BA", "styleUrl": "#tubeStyle"}, "geometry": {"type": "Point", "coordinates": [-0.11831233313327194, 51.548421318403776, 0.0]}}, {"type": "Feature", "properties": {"name": "Camden Town Station", "description": "Camden Town Station, London Underground Ltd., Camden High St, London, NW1 8NH", "styleUrl": "#tubeStyle"}, "geometry": {"type": "Point", "coordinates": [-0.1427261487302863, 51.53940352263109, 0.0]}}, {"type": "Feature", "properties": {"name": "Canada Water Station", "description": "Canada Water Station, London Underground Ltd., Deal Porter Way, Surrey Quays, London, SE16", "styleUrl": "#tubeStyle"}, "geometry": {"type": "Point", "coordinates": [-0.04970598679437827, 51.497888681995114, 0.0]}}, {"type": "Feature", "properties": {"name": "Canary Wharf Station", "description": "Canary Wharf Station, London Underground Ltd., Heron Quays Road, Canary Wharf, London, E14 4HJ", "styleUrl": "#tubeStyle"}, "geometry": {"type": "Point", "coordinates": [-0.019431816253263262, 51.503550485647594, 0.0]}}, {"type": "Feature", "properties": {"name": "Canning Town Station", "description": "Canning Town Station, London Underground Ltd., Silvertown Way, Canning Town, London, E16 1DQ", "styleUrl": "#tubeStyle"}, "geometry": {"type": "Point", "coordinates": [0.008171036532588041, 51.51383712928957, 0.0]}}, {"type": "Feature", "properties": {"name": "Cannon Street Station", "description": "Cannon Street Underground Station, London Underground Ltd., Cannon St, London, EC4N 6AP", "styleUrl": "#tubeStyle"}, "geometry": {"type": "Point", "coordinates": [-0.09069485068098068, 51.5114337223373, 0.0]}}, {"type": "Feature", "properties": {"name": "Canons Park Station", "description": "Canons Park Station, London Underground Ltd., Whitchurch Lane, Edgware, Middx, HA8 6RN", "styleUrl": "#tubeStyle"}, "geometry": {"type": "Point", "coordinates": [-0.29465374087842655, 51.60775951521532, 0.0]}}, {"type": "Feature", "properties": {"name": "Chalfont & Latimer Station", "description": "Chalfont & Latimer Station, London Underground Ltd., Station Approach, Little Chalfont, Amersham, Bucks, HP7 9PR", "styleUrl": "#tubeStyle"}, "geometry": {"type": "Point", "coordinates": [-0.5605349564487762, 51.66802547392609, 0.0]}}, {"type": "Feature", "properties": {"name": "Chalk Farm Station", "description": "Chalk Farm Station, London Underground Ltd., Adelaide Rd, London, NW3 2BP", "styleUrl": "#tubeStyle"}, "geometry": {"type": "Point", "coordinates": [-0.15372800945125148, 51.54408310242263, 0.0]}}, {"type": "Feature", "properties": {"name": "Chancery Lane Station", "description": "Chancery Lane Station, London Underground Ltd., High Holborn, London, WC1V 6DR", "styleUrl": "#tubeStyle"}, "geometry": {"type": "Point", "coordinates": [-0.11167742738397064, 51.51812323061444, 0.0]}}, {"type": "Feature", "properties": {"name": "Charing Cross Station", "description": "Charing Cross Underground Station, London Underground Ltd., Trafalgar Square, London, WC2N 5DR", "styleUrl": "#tubeStyle"}, "geometry": {"type": "Point", "coordinates": [-0.12475468662436603, 51.50859320760319, 0.0]}}, {"type": "Feature", "properties": {"name": "Chesham Station", "description": "Chesham Station, London Underground Ltd., Station Approach, Chesham, Bucks, HP5 1DH", "styleUrl": "#tubeStyle"}, "geometry": {"type": "Point", "coordinates": [-0.6112192463249099, 51.70503045482961, 0.0]}}, {"type": "Feature", "properties": {"name": "Chigwell Station", "description": "Chigwell Station, London Underground Ltd., Station Rd, Chigwell, Essex, IG7 6NT", "styleUrl": "#tubeStyle"}, "geometry": {"type": "Point", "coordinates": [0.07452661126372294, 51.6178719254051, 0.0]}}, {"type": "Feature", "properties": {"name": "Chiswick Park Station", "description": "Chiswick Park Station, London Underground Ltd., Bollo Lane, London, W4 5NE", "styleUrl": "#tubeStyle"}, "geometry": {"type": "Point", "coordinates": [-0.26774687391372615, 51.494300591745144, 0.0]}}, {"type": "Feature", "properties": {"name": "Chorleywood Station", "description": "Chorleywood Station, London Underground Ltd., Station Approach, Chorleywood, Rickmansworth, Herts WD3 5ND", "styleUrl": "#tubeStyle"}, "geometry": {"type": "Point", "coordinates": [-0.5183659897630541, 51.6542178607745, 0.0]}}, {"type": "Feature", "properties": {"name": "Clapham Common Station", "description": "Clapham Common Station, London Underground Ltd., The Pavement, London, SW4 7AJ", "styleUrl": "#tubeStyle"}, "geometry": {"type": "Point", "coordinates": [-0.1383114594642524, 51.461727933283946, 0.0]}}, {"type": "Feature", "properties": {"name": "Clapham North Station", "description": "Clapham North Station, London Underground Ltd., Clapham High St, London, SW4 7TS", "styleUrl": "#tubeStyle"}, "geometry": {"type": "Point", "coordinates": [-0.12953105372759804, 51.46484373202776, 0.0]}}, {"type": "Feature", "properties": {"name": "Clapham South Station", "description": "Clapham South Station, London Underground Ltd., Balham Hill, London, SW12 9DU", "styleUrl": "#tubeStyle"}, "geometry": {"type": "Point", "coordinates": [-0.14798209863917441, 51.452599834714476, 0.0]}}, {"type": "Feature", "properties": {"name": "Cockfosters Station", "description": "Cockfosters Station, London Underground Ltd., Cockfosters Rd, Barnet, Herts, EN4 0DZ", "styleUrl": "#tubeStyle"}, "geometry": {"type": "Point", "coordinates": [-0.14961471515587768, 51.651687534574954, 0.0]}}, {"type": "Feature", "properties": {"name": "Colindale Station", "description": "Colindale Station, London Underground Ltd., Colindale Avenue, London, NW9 5HR", "styleUrl": "#tubeStyle"}, "geometry": {"type": "Point", "coordinates": [-0.2501425877602517, 51.59528651879925, 0.0]}}, {"type": "Feature", "properties": {"name": "Colliers Wood Station", "description": "Colliers Wood Station, London Underground Ltd., Colliers Wood High St, London, SW19 2HR", "styleUrl": "#tubeStyle"}, "geometry": {"type": "Point", "coordinates": [-0.17770093662878636, 51.41807188512264, 0.0]}}, {"type": "Feature", "properties": {"name": "Covent Garden Station", "description": "Covent Garden Station, London Underground Ltd., Long Acre, London, WC2E 9JT", "styleUrl": "#tubeStyle"}, "geometry": {"type": "Point", "coordinates": [-0.12415926060311269, 51.51290958614159, 0.0]}}, {"type": "Feature", "properties": {"name": "Croxley Station", "description": "Croxley Station, London Underground Ltd., Watford Road, Rickmansworth, Herts, WD3 3DY", "styleUrl": "#tubeStyle"}, "geometry": {"type": "Point", "coordinates": [-0.4417109926091017, 51.64704633811636, 0.0]}}, {"type": "Feature", "properties": {"name": "Dagenham East Station", "description": "Dagenham East Station, London Underground Ltd., North Rainham Rd, Dagenham, Essex, RM10 8AA", "styleUrl": "#tubeStyle"}, "geometry": {"type": "Point", "coordinates": [0.16587486967702278, 51.54411673422361, 0.0]}}, {"type": "Feature", "properties": {"name": "Dagenham Heathway Station", "description": "Dagenham Heathway Station, London Underground Ltd., Heathway, Dagenham, Essex, RM9 5AN", "styleUrl": "#tubeStyle"}, "geometry": {"type": "Point", "coordinates": [0.14768419491321771, 51.54162741361619, 0.0]}}, {"type": "Feature", "properties": {"name": "Debden Station", "description": "Debden Station, London Underground Ltd., Chigwell Lane, Loughton, Essex, IG10 3TG", "styleUrl": "#tubeStyle"}, "geometry": {"type": "Point", "coordinates": [0.08383780987971237, 51.645434322048956, 0.0]}}, {"type": "Feature", "properties": {"name": "Dollis Hill Station", "description": "Dollis Hill Station, London Underground Ltd., Hamilton Rd, London, NW10 5NB", "styleUrl": "#tubeStyle"}, "geometry": {"type": "Point", "coordinates": [-0.23879755850815687, 51.5519035590561, 0.0]}}, {"type": "Feature", "properties": {"name": "Ealing Broadway Station", "description": "Ealing Broadway Station, The Broadway, London, W5 2NU", "styleUrl": "#tubeStyle"}, "geometry": {"type": "Point", "coordinates": [-0.3015000963691871, 51.51491303373916, 0.0]}}, {"type": "Feature", "properties": {"name": "Ealing Common Station", "description": "Ealing Common Station, London Underground Ltd., Uxbridge Rd, London, W5 3LD", "styleUrl": "#tubeStyle"}, "geometry": {"type": "Point", "coordinates": [-0.2882603810569991, 51.51012473853785, 0.0]}}, {"type": "Feature", "properties": {"name": "Earl's Court Station", "description": "Earl's Court Station, London Underground Ltd., Earl's Court Rd, London, SW5 9QA", "styleUrl": "#tubeStyle"}, "geometry": {"type": "Point", "coordinates": [-0.1935458540587338, 51.4918039078989, 0.0]}}, {"type": "Feature", "properties": {"name": "East Acton Station", "description": "East Acton Station, London Underground Ltd., Erconwald St, London, W12 0BP", "styleUrl": "#tubeStyle"}, "geometry": {"type": "Point", "coordinates": [-0.2475132035502077, 51.51658219905417, 0.0]}}, {"type": "Feature", "properties": {"name": "East Finchley Station", "description": "East Finchley Station, London Underground Ltd., High Rd, London, N2 0NW", "styleUrl": "#tubeStyle"}, "geometry": {"type": "Point", "coordinates": [-0.16473830562322372, 51.587271719132026, 0.0]}}, {"type": "Feature", "properties": {"name": "East Ham Station", "description": "East Ham Station, London Underground Ltd., High Street North, London, E6 2JA", "styleUrl": "#tubeStyle"}, "geometry": {"type": "Point", "coordinates": [0.05147554883547004, 51.53892603654758, 0.0]}}, {"type": "Feature", "properties": {"name": "East Putney Station", "description": "East Putney Station, Upper Richmond Rd, London, SW15", "styleUrl": "#tubeStyle"}, "geometry": {"type": "Point", "coordinates": [-0.21100317422227147, 51.45880474635, 0.0]}}, {"type": "Feature", "properties": {"name": "Eastcote Station", "description": "Eastcote Station, London Underground Ltd., Field End Rd, Ruislip, Middx, HA5 1QZ", "styleUrl": "#tubeStyle"}, "geometry": {"type": "Point", "coordinates": [-0.3968446271869902, 51.57649304450165, 0.0]}}, {"type": "Feature", "properties": {"name": "Edgware Station", "description": "Edgware Station, London Underground Ltd., Station Rd, Edgware, Middx, HA8 7AW", "styleUrl": "#tubeStyle"}, "geometry": {"type": "Point", "coordinates": [-0.2749760060452902, 51.61362307984946, 0.0]}}, {"type": "Feature", "properties": {"name": "Elephant & Castle Station", "description": "Elephant & Castle Underground Station, London Underground Ltd., London Rd, London, SE1 6LW", "styleUrl": "#tubeStyle"}, "geometry": {"type": "Point", "coordinates": [-0.10072960388334197, 51.49577704727074, 0.0]}}, {"type": "Feature", "properties": {"name": "Elm Park Station", "description": "Elm Park Station, London Underground Ltd., The Broadway, Hornchurch, Essex, RM12 4RW", "styleUrl": "#tubeStyle"}, "geometry": {"type": "Point", "coordinates": [0.19918045923923808, 51.549801253986864, 0.0]}}, {"type": "Feature", "properties": {"name": "Embankment Station", "description": "Embankment Station, London Underground Ltd., Villiers St, London, WC2N 6NS", "styleUrl": "#tubeStyle"}, "geometry": {"type": "Point", "coordinates": [-0.12236021581417866, 51.507241796748396, 0.0]}}, {"type": "Feature", "properties": {"name": "Epping Station", "description": "Epping Station, London Underground Ltd., Station Rd, Epping, Essex, CM16 4HW", "styleUrl": "#tubeStyle"}, "geometry": {"type": "Point", "coordinates": [0.1138669155835709, 51.69362460756548, 0.0]}}, {"type": "Feature", "properties": {"name": "Euston Station", "description": "Euston Underground Station, London Underground Ltd., Eversholt St, London, NW1 2DU", "styleUrl": "#tubeStyle"}, "geometry": {"type": "Point", "coordinates": [-0.13328971879931553, 51.52859626089946, 0.0]}}, {"type": "Feature", "properties": {"name": "Euston Square Station", "description": "Euston Square Station, London Underground Ltd., Euston Rd, London, NW1 2BN", "styleUrl": "#tubeStyle"}, "geometry": {"type": "Point", "coordinates": [-0.13583614069432035, 51.525561006016105, 0.0]}}, {"type": "Feature", "properties": {"name": "Fairlop Station", "description": "Fairlop Station, London Underground Ltd., Forest Rd, Ilford, Essex, IG6 3HD", "styleUrl": "#tubeStyle"}, "geometry": {"type": "Point", "coordinates": [0.09092922619115162, 51.59568093186104, 0.0]}}, {"type": "Feature", "properties": {"name": "Farringdon Station", "description": "Farringdon Station, London Underground Ltd., Cowcross St, London, EC1M 6BY", "styleUrl": "#tubeStyle"}, "geometry": {"type": "Point", "coordinates": [-0.10506525423688033, 51.52044475493079, 0.0]}}, {"type": "Feature", "properties": {"name": "Finchley Central Station", "description": "Finchley Central Station, London Underground Ltd., Regents Park Road, London, N3 2RY", "styleUrl": "#tubeStyle"}, "geometry": {"type": "Point", "coordinates": [-0.1924471070721108, 51.60097642078525, 0.0]}}, {"type": "Feature", "properties": {"name": "Finchley Road Station", "description": "Finchley Road Underground Station, London Underground Ltd., Finchley Road, London, NW3 6OP", "styleUrl": "#tubeStyle"}, "geometry": {"type": "Point", "coordinates": [-0.18049417591581227, 51.547064834336794, 0.0]}}, {"type": "Feature", "properties": {"name": "Finsbury Park Station", "description": "Finsbury Park Underground Station, London Underground Ltd., Wells Terrace, London, N4 3JU", "styleUrl": "#tubeStyle"}, "geometry": {"type": "Point", "coordinates": [-0.10651210028215848, 51.56440164848459, 0.0]}}, {"type": "Feature", "properties": {"name": "Fulham Broadway Station", "description": "Fulham Broadway Station, London Underground Ltd., Fulham Broadway, London, SW6 1BY", "styleUrl": "#tubeStyle"}, "geometry": {"type": "Point", "coordinates": [-0.19495684460321586, 51.48052978429817, 0.0]}}, {"type": "Feature", "properties": {"name": "Gants Hill Station", "description": "Gants Hill Station, London Underground Ltd., Cranbrook Rd, Ilford, Essex, IG2 6UD", "styleUrl": "#tubeStyle"}, "geometry": {"type": "Point", "coordinates": [0.06611553398291216, 51.57648754803156, 0.0]}}, {"type": "Feature", "properties": {"name": "Gloucester Road Station", "description": "Gloucester Road Station, London Underground Ltd., Gloucester Rd, London, SW7 4SF", "styleUrl": "#tubeStyle"}, "geometry": {"type": "Point", "coordinates": [-0.18298952648289693, 51.49423978391648, 0.0]}}, {"type": "Feature", "properties": {"name": "Golders Green Station", "description": "Golders Green Station, London Underground Ltd., North End Rd, London, NW11 7RN", "styleUrl": "#tubeStyle"}, "geometry": {"type": "Point", "coordinates": [-0.193993261252232, 51.5722213932328, 0.0]}}, {"type": "Feature", "properties": {"name": "Goldhawk Road Station", "description": "Goldhawk Road Station, London Underground Ltd., Goldhawk Rd, London, W12 8EG", "styleUrl": "#tubeStyle"}, "geometry": {"type": "Point", "coordinates": [-0.22674832920358337, 51.50195219730127, 0.0]}}, {"type": "Feature", "properties": {"name": "Goodge Street Station", "description": "Goodge Street Station, London Underground Ltd., 75 Tottenham Court Rd, London, W1P 9PA", "styleUrl": "#tubeStyle"}, "geometry": {"type": "Point", "coordinates": [-0.13466215209239432, 51.5204249960455, 0.0]}}, {"type": "Feature", "properties": {"name": "Grange Hill Station", "description": "Grange Hill Station, London Underground Ltd., Manor Rd, Chigwell, Essex IG7 5QB", "styleUrl": "#tubeStyle"}, "geometry": {"type": "Point", "coordinates": [0.09214640724270189, 51.61334985780146, 0.0]}}, {"type": "Feature", "properties": {"name": "Great Portland Street Station", "description": "Great Portland Street Station, London Underground Ltd., Euston Rd, London, NW1", "styleUrl": "#tubeStyle"}, "geometry": {"type": "Point", "coordinates": [-0.14395608644736893, 51.52372031462889, 0.0]}}, {"type": "Feature", "properties": {"name": "Green Park Station", "description": "Green Park Station, London Underground Ltd., Piccadilly, London, W1V 9HG", "styleUrl": "#tubeStyle"}, "geometry": {"type": "Point", "coordinates": [-0.14292742220787438, 51.506850108502306, 0.0]}}, {"type": "Feature", "properties": {"name": "Greenford Station", "description": "Greenford Station, London Underground Ltd., Oldfield Lane, Greenford, Middx, UB6 8PX", "styleUrl": "#tubeStyle"}, "geometry": {"type": "Point", "coordinates": [-0.34644414656746, 51.542302026759124, 0.0]}}, {"type": "Feature", "properties": {"name": "Hainault Station", "description": "Hainault Station, London Underground Ltd., New North Rd, Ilford, Essex, IG6 3BD", "styleUrl": "#tubeStyle"}, "geometry": {"type": "Point", "coordinates": [0.09311901404449711, 51.60372721797824, 0.0]}}, {"type": "Feature", "properties": {"name": "Hampstead Station", "description": "Hampstead Station, London Underground Ltd., Hampstead High St, London, NW3 1QG", "styleUrl": "#tubeStyle"}, "geometry": {"type": "Point", "coordinates": [-0.17821976292476463, 51.55668847626443, 0.0]}}, {"type": "Feature", "properties": {"name": "Hanger Lane Station", "description": "Hanger Lane Station, London Underground Ltd., Hanger Lane, London, W5 1DL", "styleUrl": "#tubeStyle"}, "geometry": {"type": "Point", "coordinates": [-0.2930075226206962, 51.53000640358804, 0.0]}}, {"type": "Feature", "properties": {"name": "Hatton Cross Station", "description": "Hatton Cross Station, London Underground Ltd., Great South West Rd, Feltham, Middx,", "styleUrl": "#tubeStyle"}, "geometry": {"type": "Point", "coordinates": [-0.4234093494546627, 51.46661417346276, 0.0]}}, {"type": "Feature", "properties": {"name": "Heathrow Terminal 4 Station", "description": "Heathrow T4 Station, London Underground Ltd., Hthrw Airport complex, Trmnl 4, Hounslow, Middx", "styleUrl": "#tubeStyle"}, "geometry": {"type": "Point", "coordinates": [-0.4460587669779373, 51.458553104092005, 0.0]}}, {"type": "Feature", "properties": {"name": "Hendon Central Station", "description": "Hendon Central Station, London Underground Ltd., Queens Rd, London, NW4 3AS", "styleUrl": "#tubeStyle"}, "geometry": {"type": "Point", "coordinates": [-0.2264962078032932, 51.583293830072, 0.0]}}, {"type": "Feature", "properties": {"name": "High Barnet Station", "description": "High Barnet Station, London Underground Ltd., Barnet Hill, Barnet, Herts, EN5 5RP", "styleUrl": "#tubeStyle"}, "geometry": {"type": "Point", "coordinates": [-0.1947510219475204, 51.650601170588565, 0.0]}}, {"type": "Feature", "properties": {"name": "High Street Kensington Station", "description": "High Street Kensington Station, London Underground Ltd., Kensington High St, London, W8 5SA", "styleUrl": "#tubeStyle"}, "geometry": {"type": "Point", "coordinates": [-0.19250313559081075, 51.500673420263205, 0.0]}}, {"type": "Feature", "properties": {"name": "Highbury & Islington Station", "description": "Highbury & Islington Underground Station, London Underground Ltd., Holloway Rd, London, N5 1RA", "styleUrl": "#tubeStyle"}, "geometry": {"type": "Point", "coordinates": [-0.1039642387849793, 51.54622949173787, 0.0]}}, {"type": "Feature", "properties": {"name": "Highgate Station", "description": "Highgate Station, London Underground Ltd., Archway Rd, London, N6", "styleUrl": "#tubeStyle"}, "geometry": {"type": "Point", "coordinates": [-0.14663842256112838, 51.57759782961879, 0.0]}}, {"type": "Feature", "properties": {"name": "Hillingdon Station", "description": "Hillingdon Station, London Underground Ltd., Long Lane, Hillingdon, Uxbridge, Middlesex, UB10 9NR", "styleUrl": "#tubeStyle"}, "geometry": {"type": "Point", "coordinates": [-0.44992629566185893, 51.553716844570936, 0.0]}}, {"type": "Feature", "properties": {"name": "Holborn Station", "description": "Holborn Station, London Underground Ltd., Kingsway, London, WC2B 6AA", "styleUrl": "#tubeStyle"}, "geometry": {"type": "Point", "coordinates": [-0.1200088492448251, 51.51743878307597, 0.0]}}, {"type": "Feature", "properties": {"name": "Holland Park Station", "description": "Holland Park Station, London Underground Ltd., Holland Park Avenue, London, W11 3RB", "styleUrl": "#tubeStyle"}, "geometry": {"type": "Point", "coordinates": [-0.2057286727497663, 51.50733404315068, 0.0]}}, {"type": "Feature", "properties": {"name": "Holloway Road Station", "description": "Holloway Road Station, London Underground Ltd., Holloway Rd, London, N7 8HS", "styleUrl": "#tubeStyle"}, "geometry": {"type": "Point", "coordinates": [-0.11292563253915226, 51.5527505378786, 0.0]}}, {"type": "Feature", "properties": {"name": "Hornchurch Station", "description": "Hornchurch Station, London Underground Ltd., Station Lane, Hornchurch, Essex, RM12 6LS", "styleUrl": "#tubeStyle"}, "geometry": {"type": "Point", "coordinates": [0.21901898670792805, 51.55400525600633, 0.0]}}, {"type": "Feature", "properties": {"name": "Hounslow Central Station", "description": "Hounslow Central Station, London Underground Ltd., Lampton Rd, Hounslow, Middx, TW3 1JG", "styleUrl": "#tubeStyle"}, "geometry": {"type": "Point", "coordinates": [-0.3669224203190653, 51.471083300365436, 0.0]}}, {"type": "Feature", "properties": {"name": "Hounslow East Station", "description": "Hounslow East Station, London Underground Ltd., Kingsley Rd, Hounslow, Middx, TW3 4AB", "styleUrl": "#tubeStyle"}, "geometry": {"type": "Point", "coordinates": [-0.35669531824492007, 51.473170615833226, 0.0]}}, {"type": "Feature", "properties": {"name": "Hounslow West Station", "description": "Hounslow West Station, London Underground Ltd., Bath Rd, Hounslow, Middx, TW3 3DH", "styleUrl": "#tubeStyle"}, "geometry": {"type": "Point", "coordinates": [-0.3857318684075316, 51.47303479896572, 0.0]}}, {"type": "Feature", "properties": {"name": "Hyde Park Corner Station", "description": "Hyde Park Corner Station, London Underground Ltd., Knightsbridge, London, SW1X 7LY", "styleUrl": "#tubeStyle"}, "geometry": {"type": "Point", "coordinates": [-0.15274881198176699, 51.50276041121257, 0.0]}}, {"type": "Feature", "properties": {"name": "Ickenham Station", "description": "Ickenham Station, London Underground Ltd., Glebe Avenue, Uxbridge, Middx, UB10 8PD", "styleUrl": "#tubeStyle"}, "geometry": {"type": "Point", "coordinates": [-0.44202655568901217, 51.56198474255924, 0.0]}}, {"type": "Feature", "properties": {"name": "Kennington Station", "description": "Kennington Station, London Underground Ltd., Kennington Park Rd, London, SE11 4QJ", "styleUrl": "#tubeStyle"}, "geometry": {"type": "Point", "coordinates": [-0.10548515252628322, 51.48811953061154, 0.0]}}, {"type": "Feature", "properties": {"name": "Kentish Town Station", "description": "Kentish Town Underground Station, London Underground Ltd., Kentish Town Rd, London, NW5 2AA", "styleUrl": "#tubeStyle"}, "geometry": {"type": "Point", "coordinates": [-0.14046419295327214, 51.55030376223787, 0.0]}}, {"type": "Feature", "properties": {"name": "Kilburn Station", "description": "Kilburn Station, London Underground Ltd., Shootup Hill, London, NW6 7QL", "styleUrl": "#tubeStyle"}, "geometry": {"type": "Point", "coordinates": [-0.20463334125465596, 51.54687950245684, 0.0]}}, {"type": "Feature", "properties": {"name": "Kilburn Park Station", "description": "Kilburn Park Station, London Underground Ltd., Cambridge Avenue, London, NW6 5AD", "styleUrl": "#tubeStyle"}, "geometry": {"type": "Point", "coordinates": [-0.1939659473685272, 51.535069084357, 0.0]}}, {"type": "Feature", "properties": {"name": "Kingsbury Station", "description": "Kingsbury Station, London Underground Ltd., Kingsbury Rd, London, NW9 9EG", "styleUrl": "#tubeStyle"}, "geometry": {"type": "Point", "coordinates": [-0.2787990574340665, 51.584756866190325, 0.0]}}, {"type": "Feature", "properties": {"name": "Knightsbridge Station", "description": "Knightsbridge Station, London Underground Ltd., Sloane St, London, SW1", "styleUrl": "#tubeStyle"}, "geometry": {"type": "Point", "coordinates": [-0.16050709132883215, 51.501551433201136, 0.0]}}, {"type": "Feature", "properties": {"name": "Ladbroke Grove Station", "description": "Ladbroke Grove Station, London Underground Ltd., Ladbroke Grove, London, W10 6HJ", "styleUrl": "#tubeStyle"}, "geometry": {"type": "Point", "coordinates": [-0.21086191784858715, 51.517188449881736, 0.0]}}, {"type": "Feature", "properties": {"name": "Lambeth North Station", "description": "Lambeth North Station, London Underground Ltd., 110 Westminster Bridge Rd, London, SE1 7XG", "styleUrl": "#tubeStyle"}, "geometry": {"type": "Point", "coordinates": [-0.11176027027770197, 51.49905814869857, 0.0]}}, {"type": "Feature", "properties": {"name": "Lancaster Gate Station", "description": "Lancaster Gate Station, London Underground Ltd., Bayswater Rd, London, W2", "styleUrl": "#tubeStyle"}, "geometry": {"type": "Point", "coordinates": [-0.1754286592578167, 51.51182153458861, 0.0]}}, {"type": "Feature", "properties": {"name": "Latimer Road Station", "description": "Latimer Road Station, London Underground Ltd., Bramley Rd, London, W10 6SZ", "styleUrl": "#tubeStyle"}, "geometry": {"type": "Point", "coordinates": [-0.21777930179214605, 51.513543593897175, 0.0]}}, {"type": "Feature", "properties": {"name": "Leicester Square Station", "description": "Leicester Square Station, London Underground Ltd., Cranbourn St, London, WC2H 0AP", "styleUrl": "#tubeStyle"}, "geometry": {"type": "Point", "coordinates": [-0.12823553217276046, 51.5112210283672, 0.0]}}, {"type": "Feature", "properties": {"name": "Leyton Station", "description": "Leyton Underground Station, London Underground Ltd., High Rd, Leyton, London, E10 5PS", "styleUrl": "#tubeStyle"}, "geometry": {"type": "Point", "coordinates": [-0.00561987978130908, 51.55643292705491, 0.0]}}, {"type": "Feature", "properties": {"name": "Leytonstone Station", "description": "Leytonstone Station, London Underground Ltd., Church Lane, London, E11 1HE", "styleUrl": "#tubeStyle"}, "geometry": {"type": "Point", "coordinates": [0.008215047486340644, 51.56818526367459, 0.0]}}, {"type": "Feature", "properties": {"name": "Liverpool Street Station", "description": "Liverpool Street Underground Station Central, London Underground Ltd., Liverpool Street, London, EC2M 7PP", "styleUrl": "#tubeStyle"}, "geometry": {"type": "Point", "coordinates": [-0.08296570945694384, 51.51735123075174, 0.0]}}, {"type": "Feature", "properties": {"name": "London Bridge Station", "description": "London Bridge Underground Station, London Underground Ltd., 21 Duke St Hill, London, SE1 2SW", "styleUrl": "#tubeStyle"}, "geometry": {"type": "Point", "coordinates": [-0.08692240419194193, 51.505499353249796, 0.0]}}, {"type": "Feature", "properties": {"name": "Loughton Station", "description": "Loughton Station, London Underground Ltd., Old Station Rd, Roding Rd, Loughton, Essex, IG10 4PD", "styleUrl": "#tubeStyle"}, "geometry": {"type": "Point", "coordinates": [0.05531199715457037, 51.641512759080584, 0.0]}}, {"type": "Feature", "properties": {"name": "Maida Vale Station", "description": "Maida Vale Station, London Underground Ltd., Elgin Avenue, London, W9 1JS", "styleUrl": "#tubeStyle"}, "geometry": {"type": "Point", "coordinates": [-0.18562590222991157, 51.529760016810314, 0.0]}}, {"type": "Feature", "properties": {"name": "Manor House Station", "description": "Manor House Station, London Underground Ltd., Green Lanes, London, N4 1BZ", "styleUrl": "#tubeStyle"}, "geometry": {"type": "Point", "coordinates": [-0.09571246670488136, 51.570756005284366, 0.0]}}, {"type": "Feature", "properties": {"name": "Mansion House Station", "description": "Mansion House Station, London Underground Ltd., 38 Cannon St, London, EC4N 6JD", "styleUrl": "#tubeStyle"}, "geometry": {"type": "Point", "coordinates": [-0.09418713531293257, 51.51202120095603, 0.0]}}, {"type": "Feature", "properties": {"name": "Marble Arch Station", "description": "Marble Arch Station, London Underground Ltd., Oxford St, London, W1R 1DD", "styleUrl": "#tubeStyle"}, "geometry": {"type": "Point", "coordinates": [-0.15843804662658706, 51.51354329318117, 0.0]}}, {"type": "Feature", "properties": {"name": "Marylebone Station", "description": "Marylebone Underground Station, London Underground Ltd., Harewood Row, London, NW1 6JP", "styleUrl": "#tubeStyle"}, "geometry": {"type": "Point", "coordinates": [-0.16310448714212372, 51.522223341970424, 0.0]}}, {"type": "Feature", "properties": {"name": "Mile End Station", "description": "Mile End Station, London Underground Ltd., Mile End Rd, London, E3 4DH", "styleUrl": "#tubeStyle"}, "geometry": {"type": "Point", "coordinates": [-0.03340417038110615, 51.52509187183448, 0.0]}}, {"type": "Feature", "properties": {"name": "Mill Hill East Station", "description": "Mill Hill East Station, London Underground Ltd., Bittacy Hill, London, NW7 1BS", "styleUrl": "#tubeStyle"}, "geometry": {"type": "Point", "coordinates": [-0.2098944199460435, 51.60825889523928, 0.0]}}, {"type": "Feature", "properties": {"name": "Monument Station", "description": "Monument Station, London Underground Ltd., King William St, London, EC4R 9AA", "styleUrl": "#tubeStyle"}, "geometry": {"type": "Point", "coordinates": [-0.08894273274156252, 51.51334781918428, 0.0]}}, {"type": "Feature", "properties": {"name": "Moor Park Station", "description": "Moor Park Station, London Underground Ltd., Sandy Lodge Lane, Rickmansworth, Herts, HA6 2JQ.", "styleUrl": "#tubeStyle"}, "geometry": {"type": "Point", "coordinates": [-0.43266684860392074, 51.62973109047762, 0.0]}}, {"type": "Feature", "properties": {"name": "Moorgate Station", "description": "Moorgate Station, London Underground Ltd., Moorfields, London, EC2Y 9AE", "styleUrl": "#tubeStyle"}, "geometry": {"type": "Point", "coordinates": [-0.08900631501309116, 51.51836724988462, 0.0]}}, {"type": "Feature", "properties": {"name": "Morden Station", "description": "Morden Underground Station, London Underground Ltd., London Rd, Morden, Surrey, SM4 5AZ", "styleUrl": "#tubeStyle"}, "geometry": {"type": "Point", "coordinates": [-0.1947907008345152, 51.40233694076687, 0.0]}}, {"type": "Feature", "properties": {"name": "Mornington Crescent Station", "description": "Mornington Crescent Station, London Underground Ltd., Eversholt St, London, NW1 2JA", "styleUrl": "#tubeStyle"}, "geometry": {"type": "Point", "coordinates": [-0.13884252998989957, 51.53420661060257, 0.0]}}, {"type": "Feature", "properties": {"name": "Neasden Station", "description": "Neasden Station, London Underground Ltd., Neasden Lane, London, NW10 1PH", "styleUrl": "#tubeStyle"}, "geometry": {"type": "Point", "coordinates": [-0.24978287282243158, 51.55396571746177, 0.0]}}, {"type": "Feature", "properties": {"name": "Newbury Park Station", "description": "Newbury Park Station, London Underground Ltd., Eastern Avenue, Ilford, Essex, IG2 7RN", "styleUrl": "#tubeStyle"}, "geometry": {"type": "Point", "coordinates": [0.09033731368127056, 51.5755724936106, 0.0]}}, {"type": "Feature", "properties": {"name": "North Acton Station", "description": "North Acton Station, London Underground Ltd., Victoria Rd, London, W3 6UP", "styleUrl": "#tubeStyle"}, "geometry": {"type": "Point", "coordinates": [-0.25973738573779515, 51.52336555636413, 0.0]}}, {"type": "Feature", "properties": {"name": "North Ealing Station", "description": "North Ealing Station, London Underground Ltd., Station Road, London, W5 3AF", "styleUrl": "#tubeStyle"}, "geometry": {"type": "Point", "coordinates": [-0.2890049797625605, 51.517555160358675, 0.0]}}, {"type": "Feature", "properties": {"name": "North Greenwich Station", "description": "North Greenwich Station, London Underground Ltd., 5 Millenium Way, London, SE10 0PH", "styleUrl": "#tubeStyle"}, "geometry": {"type": "Point", "coordinates": [0.003607416938325964, 51.50018182399264, 0.0]}}, {"type": "Feature", "properties": {"name": "North Harrow Station", "description": "North Harrow Station, London Underground Ltd., Station Rd, North Harrow, Middx, HA2 7SR", "styleUrl": "#tubeStyle"}, "geometry": {"type": "Point", "coordinates": [-0.3622235732581942, 51.584791846729885, 0.0]}}, {"type": "Feature", "properties": {"name": "Northfields Station", "description": "Northfields Station, London Underground Ltd., Northfield Avenue, London, W13 9QU", "styleUrl": "#tubeStyle"}, "geometry": {"type": "Point", "coordinates": [-0.31415683266496985, 51.49927648219358, 0.0]}}, {"type": "Feature", "properties": {"name": "Northolt Station", "description": "Northolt Underground Station, London Underground Ltd., Mandeville Rd, Northolt, Middx, UB5 4AA", "styleUrl": "#tubeStyle"}, "geometry": {"type": "Point", "coordinates": [-0.36845983428266116, 51.54815043900274, 0.0]}}, {"type": "Feature", "properties": {"name": "Northwick Park Station", "description": "Northwick Park Station, London Underground Ltd., Northwick Avenue, Harrow, Middx, HA3 0AT", "styleUrl": "#tubeStyle"}, "geometry": {"type": "Point", "coordinates": [-0.3182063568762064, 51.57859284148752, 0.0]}}, {"type": "Feature", "properties": {"name": "Northwood Station", "description": "Northwood Station, London Underground Ltd., Station Approach, Green Lane, Northwood, Middx, HA6 2XL", "styleUrl": "#tubeStyle"}, "geometry": {"type": "Point", "coordinates": [-0.42386079385157444, 51.611159228903716, 0.0]}}, {"type": "Feature", "properties": {"name": "Northwood Hills Station", "description": "Northwood Hills Station, London Underground Ltd., Joel St, Northwood, Middx, HA6 1NZ", "styleUrl": "#tubeStyle"}, "geometry": {"type": "Point", "coordinates": [-0.4092986306741607, 51.6004945765, 0.0]}}, {"type": "Feature", "properties": {"name": "Notting Hill Gate Station", "description": "Notting Hill Gate Station, London Underground Ltd., Notting Hill Gate, London, W11 3HT", "styleUrl": "#tubeStyle"}, "geometry": {"type": "Point", "coordinates": [-0.1965376854077625, 51.50906353364374, 0.0]}}, {"type": "Feature", "properties": {"name": "Oakwood Station", "description": "Oakwood Station, London Underground Ltd., Bramley Rd, London, N14 4UT", "styleUrl": "#tubeStyle"}, "geometry": {"type": "Point", "coordinates": [-0.13184172130093721, 51.64758364919411, 0.0]}}, {"type": "Feature", "properties": {"name": "Old Street Station", "description": "Old Street Station, London Underground Ltd., Old St, London, EC1V 9NR", "styleUrl": "#tubeStyle"}, "geometry": {"type": "Point", "coordinates": [-0.08754973143646254, 51.52560132336981, 0.0]}}, {"type": "Feature", "properties": {"name": "Osterley Station", "description": "Osterley Station, London Underground Ltd., Great West Rd, Isleworth, Middx, TW7 4PU", "styleUrl": "#tubeStyle"}, "geometry": {"type": "Point", "coordinates": [-0.3519944046456113, 51.480928804588714, 0.0]}}, {"type": "Feature", "properties": {"name": "Oval Station", "description": "Oval Station, London Underground Ltd., 318 Kennington Park Rd, London, SE11 4PP", "styleUrl": "#tubeStyle"}, "geometry": {"type": "Point", "coordinates": [-0.11289340879806765, 51.482105452338025, 0.0]}}, {"type": "Feature", "properties": {"name": "Oxford Circus Station", "description": "Oxford Circus Station, London Underground Ltd., Oxford St, London, W1R 1AB", "styleUrl": "#tubeStyle"}, "geometry": {"type": "Point", "coordinates": [-0.14176898366896637, 51.51512379903709, 0.0]}}, {"type": "Feature", "properties": {"name": "Paddington Station", "description": "Paddington Underground Stations, London Underground Ltd., Praed St, London, W2", "styleUrl": "#tubeStyle"}, "geometry": {"type": "Point", "coordinates": [-0.1753900060103242, 51.51531041579349, 0.0]}}, {"type": "Feature", "properties": {"name": "Park Royal Station", "description": "Park Royal Station, London Underground Ltd., Western Avenue, London, W5 3EL", "styleUrl": "#tubeStyle"}, "geometry": {"type": "Point", "coordinates": [-0.2842280159048494, 51.52690137924541, 0.0]}}, {"type": "Feature", "properties": {"name": "Parsons Green Station", "description": "Parsons Green Station, London Underground Ltd., Parsons Green Lane, London, SW6 4HJ", "styleUrl": "#tubeStyle"}, "geometry": {"type": "Point", "coordinates": [-0.20123465658311965, 51.47509533047479, 0.0]}}, {"type": "Feature", "properties": {"name": "Perivale Station", "description": "Perivale Station, London Underground Ltd., Horsenden Lane, Greenford, Middx", "styleUrl": "#tubeStyle"}, "geometry": {"type": "Point", "coordinates": [-0.3238520384923464, 51.53659408992669, 0.0]}}, {"type": "Feature", "properties": {"name": "Piccadilly Circus Station", "description": "Piccadilly Circus Station, London Underground Ltd., Piccadilly Circus, London, W1V 9LB", "styleUrl": "#tubeStyle"}, "geometry": {"type": "Point", "coordinates": [-0.13400636555842163, 51.51002699527075, 0.0]}}, {"type": "Feature", "properties": {"name": "Pimlico Station", "description": "Pimlico Station, London Underground Ltd., Bessborough St, London, SW1V 2JA", "styleUrl": "#tubeStyle"}, "geometry": {"type": "Point", "coordinates": [-0.13374866528779117, 51.48919376011052, 0.0]}}, {"type": "Feature", "properties": {"name": "Pinner Station", "description": "Pinner Station, London Underground Ltd., Station Approach, Pinner, Middx, HA5 5LZ", "styleUrl": "#tubeStyle"}, "geometry": {"type": "Point", "coordinates": [-0.3809198041503488, 51.59285763009086, 0.0]}}, {"type": "Feature", "properties": {"name": "Plaistow Station", "description": "Plaistow Station, London Underground Ltd., Plaistow Rd, London, E15", "styleUrl": "#tubeStyle"}, "geometry": {"type": "Point", "coordinates": [0.017804698696490016, 51.531218392483616, 0.0]}}, {"type": "Feature", "properties": {"name": "Preston Road Station", "description": "Preston Road Station, London Underground Ltd., Preston Rd, Wembley, Middx, HA3 0PS", "styleUrl": "#tubeStyle"}, "geometry": {"type": "Point", "coordinates": [-0.2952563001589678, 51.57203799181502, 0.0]}}, {"type": "Feature", "properties": {"name": "Putney Bridge Station", "description": "Putney Bridge Station, London Underground Ltd., Station Approach, London, SW6 3UH", "styleUrl": "#tubeStyle"}, "geometry": {"type": "Point", "coordinates": [-0.20897667848792142, 51.46790222227188, 0.0]}}, {"type": "Feature", "properties": {"name": "Queensbury Station", "description": "Queensbury Station, London Underground Ltd., Cumberland Rd, Harrow, Middx, HA8 5NP", "styleUrl": "#tubeStyle"}, "geometry": {"type": "Point", "coordinates": [-0.2857856816432078, 51.59434714807256, 0.0]}}, {"type": "Feature", "properties": {"name": "Queensway Station", "description": "Queensway Station, London Underground Ltd., Bayswater Rd, London, W2 4SS", "styleUrl": "#tubeStyle"}, "geometry": {"type": "Point", "coordinates": [-0.18743446136457448, 51.51038005162461, 0.0]}}, {"type": "Feature", "properties": {"name": "Ravenscourt Park Station", "description": "Ravenscourt Park Station, London Underground Ltd., Ravenscourt Rd, London, W6 0UG", "styleUrl": "#tubeStyle"}, "geometry": {"type": "Point", "coordinates": [-0.2362583539455994, 51.49413653149786, 0.0]}}, {"type": "Feature", "properties": {"name": "Rayners Lane Station", "description": "Rayners Lane Station, London Underground Ltd., Alexandra Avenue, Harrow, Middx", "styleUrl": "#tubeStyle"}, "geometry": {"type": "Point", "coordinates": [-0.37100556351776487, 51.57497670388134, 0.0]}}, {"type": "Feature", "properties": {"name": "Redbridge Station", "description": "Redbridge Station, London Underground Ltd., Eastern Avenue, Ilford, Essex, IG4 5OQ", "styleUrl": "#tubeStyle"}, "geometry": {"type": "Point", "coordinates": [0.045423116107576156, 51.57630179240069, 0.0]}}, {"type": "Feature", "properties": {"name": "Regent's Park Station", "description": "Regent's Park Station, London Underground Ltd., Marylebone Rd, London, NW1 5HA", "styleUrl": "#tubeStyle"}, "geometry": {"type": "Point", "coordinates": [-0.14686263475286204, 51.52350550346837, 0.0]}}, {"type": "Feature", "properties": {"name": "Rickmansworth Station", "description": "Rickmansworth Station, London Underground Ltd., Station Approach, Rickmansworth, Herts, WD3 1QY", "styleUrl": "#tubeStyle"}, "geometry": {"type": "Point", "coordinates": [-0.4737121070183859, 51.64027270698857, 0.0]}}, {"type": "Feature", "properties": {"name": "Roding Valley Station", "description": "Roding Valley Station, London Underground Ltd., Station Way, Buckhurst Hill, Essex, IG9 6LN", "styleUrl": "#tubeStyle"}, "geometry": {"type": "Point", "coordinates": [0.04386441546337607, 51.61711524120542, 0.0]}}, {"type": "Feature", "properties": {"name": "Rotherhithe Station", "description": "Rotherhithe Station, London Underground Ltd., Brunel Rd, London, SE16 4LF", "styleUrl": "#tubeStyle"}, "geometry": {"type": "Point", "coordinates": [-0.052180998321318894, 51.50100569426645, 0.0]}}, {"type": "Feature", "properties": {"name": "Royal Oak Station", "description": "Royal Oak Station, London Underground Ltd., Lord Hills Bridge, London, W2 6ET", "styleUrl": "#tubeStyle"}, "geometry": {"type": "Point", "coordinates": [-0.1882300430283105, 51.51901712033329, 0.0]}}, {"type": "Feature", "properties": {"name": "Ruislip Station", "description": "Ruislip Station, London Underground Ltd., Station Approach, Ruislip, Middx, HA4 8LD", "styleUrl": "#tubeStyle"}, "geometry": {"type": "Point", "coordinates": [-0.4214550740149796, 51.5714491132228, 0.0]}}, {"type": "Feature", "properties": {"name": "Ruislip Gardens Station", "description": "Ruislip Gardens Station, London Underground Ltd., West End Rd, Ruislip, Middx, HA4 6NF", "styleUrl": "#tubeStyle"}, "geometry": {"type": "Point", "coordinates": [-0.4110392849284111, 51.560588503076744, 0.0]}}, {"type": "Feature", "properties": {"name": "Ruislip Manor Station", "description": "Ruislip Manor Station, London Underground Ltd., Victoria Rd, Ruislip, Middx, HA4 9AA", "styleUrl": "#tubeStyle"}, "geometry": {"type": "Point", "coordinates": [-0.4123457920932595, 51.57318767786705, 0.0]}}, {"type": "Feature", "properties": {"name": "Russell Square Station", "description": "Russell Square Station, London Underground Ltd., Bernard St, London, WC1N 1LG", "styleUrl": "#tubeStyle"}, "geometry": {"type": "Point", "coordinates": [-0.12431005564796778, 51.52291284508324, 0.0]}}, {"type": "Feature", "properties": {"name": "Seven Sisters Station", "description": "Seven Sisters Underground Station, London Underground Ltd., Seven Sisters Rd, London", "styleUrl": "#tubeStyle"}, "geometry": {"type": "Point", "coordinates": [-0.0724918814949986, 51.58335418466474, 0.0]}}, {"type": "Feature", "properties": {"name": "Shadwell Station", "description": "Shadwell Station, London Underground Ltd., Cable St, London, E1 2QE", "styleUrl": "#tubeStyle"}, "geometry": {"type": "Point", "coordinates": [-0.056904475684454184, 51.51122897818464, 0.0]}}, {"type": "Feature", "properties": {"name": "Sloane Square Station", "description": "Sloane Square Station, London Underground Ltd., Sloane Square, London, SW1W 8BB", "styleUrl": "#tubeStyle"}, "geometry": {"type": "Point", "coordinates": [-0.15648623169091333, 51.49228782409722, 0.0]}}, {"type": "Feature", "properties": {"name": "Snaresbrook Station", "description": "Snaresbrook Station, London Underground Ltd., Station Approach, London, E11 1QE", "styleUrl": "#tubeStyle"}, "geometry": {"type": "Point", "coordinates": [0.02149046243868993, 51.58082701976086, 0.0]}}, {"type": "Feature", "properties": {"name": "South Ealing Station", "description": "South Ealing Station, London Underground Ltd., South Ealing Rd, London, W5 4QB", "styleUrl": "#tubeStyle"}, "geometry": {"type": "Point", "coordinates": [-0.30701883924670625, 51.50136793634418, 0.0]}}, {"type": "Feature", "properties": {"name": "South Harrow Station", "description": "South Harrow Station, London Underground Ltd., South Hill Ave, Harrow, Middx, HA2 8HN", "styleUrl": "#tubeStyle"}, "geometry": {"type": "Point", "coordinates": [-0.3522115708704264, 51.56467757054855, 0.0]}}, {"type": "Feature", "properties": {"name": "South Kensington Station", "description": "South Kensington Station, London Underground Ltd., Pelham St, London, SW7 2NB", "styleUrl": "#tubeStyle"}, "geometry": {"type": "Point", "coordinates": [-0.1739223108838274, 51.49399987276369, 0.0]}}, {"type": "Feature", "properties": {"name": "South Ruislip Station", "description": "South Ruislip Station, London Underground Ltd., Station Approach, Ruislip, Middx, HA4 6DP", "styleUrl": "#tubeStyle"}, "geometry": {"type": "Point", "coordinates": [-0.3986587571759527, 51.55651695797167, 0.0]}}, {"type": "Feature", "properties": {"name": "South Wimbledon Station", "description": "South Wimbledon Station, London Underground Ltd., High St, London, SW19 1DE", "styleUrl": "#tubeStyle"}, "geometry": {"type": "Point", "coordinates": [-0.1919790940231244, 51.41528036588433, 0.0]}}, {"type": "Feature", "properties": {"name": "South Woodford Station", "description": "South Woodford Station, London Underground Ltd., George Lane, London, E18 1JJ", "styleUrl": "#tubeStyle"}, "geometry": {"type": "Point", "coordinates": [0.02731713374279965, 51.59172564827309, 0.0]}}, {"type": "Feature", "properties": {"name": "Southfields Station", "description": "Southfields Station, Wimbledon Park Rd, London, SW18", "styleUrl": "#tubeStyle"}, "geometry": {"type": "Point", "coordinates": [-0.20653754405538557, 51.44493132701891, 0.0]}}, {"type": "Feature", "properties": {"name": "Southgate Station", "description": "Southgate Station, London Underground Ltd., High St, London, N14", "styleUrl": "#tubeStyle"}, "geometry": {"type": "Point", "coordinates": [-0.1277583933710463, 51.63231971007186, 0.0]}}, {"type": "Feature", "properties": {"name": "Southwark Station", "description": "Southwark Station, London Underground Ltd., 68 - 70 Blackfriars Rd, London, SE1 8NW", "styleUrl": "#tubeStyle"}, "geometry": {"type": "Point", "coordinates": [-0.10509183600618412, 51.503843006939, 0.0]}}, {"type": "Feature", "properties": {"name": "Stamford Brook Station", "description": "Stamford Brook Station, London Underground Ltd., Goldhawk Rd, London, W6", "styleUrl": "#tubeStyle"}, "geometry": {"type": "Point", "coordinates": [-0.24545379523797234, 51.49479623145682, 0.0]}}, {"type": "Feature", "properties": {"name": "Stanmore Station", "description": "Stanmore Station, London Underground Ltd., London Rd, Stanmore, Middx, HA7 4PD", "styleUrl": "#tubeStyle"}, "geometry": {"type": "Point", "coordinates": [-0.30310817135863766, 51.6196183368386, 0.0]}}, {"type": "Feature", "properties": {"name": "Stepney Green Station", "description": "Stepney Green Station, London Underground Ltd., Mile End Rd, London, E1 4AQ", "styleUrl": "#tubeStyle"}, "geometry": {"type": "Point", "coordinates": [-0.04645866635082054, 51.52191062962783, 0.0]}}, {"type": "Feature", "properties": {"name": "Stockwell Station", "description": "Stockwell Station, London Underground Ltd., Clapham Rd, London, SW9 9AE", "styleUrl": "#tubeStyle"}, "geometry": {"type": "Point", "coordinates": [-0.12290931166210296, 51.47216653861575, 0.0]}}, {"type": "Feature", "properties": {"name": "Stratford Station", "description": "Stratford Station BR Station St, London, E15 1DE", "styleUrl": "#tubeStyle"}, "geometry": {"type": "Point", "coordinates": [-0.003195329570308264, 51.541309265966866, 0.0]}}, {"type": "Feature", "properties": {"name": "Sudbury Hill Station", "description": "Sudbury Hill Underground Station, London Underground Ltd., Greenford Rd, Harrow, Middx, HA1 3RA", "styleUrl": "#tubeStyle"}, "geometry": {"type": "Point", "coordinates": [-0.33621563204435556, 51.5569961892343, 0.0]}}, {"type": "Feature", "properties": {"name": "Sudbury Town Station", "description": "Sudbury Town Station, London Underground Ltd., Station Approach, Wembley, Middx, HA0 2LA", "styleUrl": "#tubeStyle"}, "geometry": {"type": "Point", "coordinates": [-0.3154826970337241, 51.5507824568971, 0.0]}}, {"type": "Feature", "properties": {"name": "Surrey Quays Station", "description": "Surrey Quays Station, London Underground Ltd., Lower Rd, London, SE16 2UF", "styleUrl": "#tubeStyle"}, "geometry": {"type": "Point", "coordinates": [-0.04751493107143308, 51.49319345746317, 0.0]}}, {"type": "Feature", "properties": {"name": "Swiss Cottage Station", "description": "Swiss Cottage Station, London Underground Ltd., Finchley Rd, London, NW3 6HY", "styleUrl": "#tubeStyle"}, "geometry": {"type": "Point", "coordinates": [-0.1747592530287339, 51.543315320154385, 0.0]}}, {"type": "Feature", "properties": {"name": "Temple Station", "description": "Temple Station, London Underground Ltd., Victoria Embankment, London, WC2R 2PH", "styleUrl": "#tubeStyle"}, "geometry": {"type": "Point", "coordinates": [-0.11370308973836998, 51.51096998494446, 0.0]}}, {"type": "Feature", "properties": {"name": "Theydon Bois Station", "description": "Theydon Bois Station, London Underground Ltd., Coppice Row, Theydon Bois, Essex, CM16 7EU", "styleUrl": "#tubeStyle"}, "geometry": {"type": "Point", "coordinates": [0.10312537666349461, 51.671711317303384, 0.0]}}, {"type": "Feature", "properties": {"name": "Tooting Bec Station", "description": "Tooting Bec Station, London Underground Ltd., Balham High Rd, London, SW17 9AH", "styleUrl": "#tubeStyle"}, "geometry": {"type": "Point", "coordinates": [-0.15970053993575214, 51.43575962880838, 0.0]}}, {"type": "Feature", "properties": {"name": "Tooting Broadway Station", "description": "Tooting Broadway Station, London Underground Ltd., Tooting High St, London, SW17 0SU", "styleUrl": "#tubeStyle"}, "geometry": {"type": "Point", "coordinates": [-0.16797676330521907, 51.427435389662655, 0.0]}}, {"type": "Feature", "properties": {"name": "Tottenham Court Road Station", "description": "Tottenham Court Road Station, London Underground Ltd., Oxford St, London, W1", "styleUrl": "#tubeStyle"}, "geometry": {"type": "Point", "coordinates": [-0.13087051814094436, 51.51620955251386, 0.0]}}, {"type": "Feature", "properties": {"name": "Tottenham Hale Station", "description": "Tottenham Hale Underground Station, London Underground Ltd., Station Rd, London, N17 9LR", "styleUrl": "#tubeStyle"}, "geometry": {"type": "Point", "coordinates": [-0.06028111636750495, 51.5880453015215, 0.0]}}, {"type": "Feature", "properties": {"name": "Totteridge & Whetstone Station", "description": "Totteridge & Whetstone Station, London Underground Ltd., Totteridge Lane, London, N20 9QP", "styleUrl": "#tubeStyle"}, "geometry": {"type": "Point", "coordinates": [-0.1792612129239828, 51.63020770476238, 0.0]}}, {"type": "Feature", "properties": {"name": "Tower Hill Station", "description": "Tower Hill Station, London Underground Ltd., Trinity Square, London, EC3N 4DJ", "styleUrl": "#tubeStyle"}, "geometry": {"type": "Point", "coordinates": [-0.07635369517460518, 51.51006595388412, 0.0]}}, {"type": "Feature", "properties": {"name": "Tufnell Park Station", "description": "Tufnell Park Station, London Underground Ltd., Fortress Rd, London, N19 5QB", "styleUrl": "#tubeStyle"}, "geometry": {"type": "Point", "coordinates": [-0.13792488108063694, 51.556666819988955, 0.0]}}, {"type": "Feature", "properties": {"name": "Turnham Green Station", "description": "Turnham Green Station, London Underground Ltd., Turnham Green Terrace, London, W4 1LR", "styleUrl": "#tubeStyle"}, "geometry": {"type": "Point", "coordinates": [-0.25453298298794297, 51.495111725298166, 0.0]}}, {"type": "Feature", "properties": {"name": "Turnpike Lane Station", "description": "Turnpike Lane Station, London Underground Ltd., Westbury Avenue, London, N15 3NX", "styleUrl": "#tubeStyle"}, "geometry": {"type": "Point", "coordinates": [-0.10279227505581537, 51.59029677015476, 0.0]}}, {"type": "Feature", "properties": {"name": "Upminster Station", "description": "Upminster Station BR Station Rd, Upminster, Essex, RM14 2TD", "styleUrl": "#tubeStyle"}, "geometry": {"type": "Point", "coordinates": [0.25108711606680095, 51.55888907616999, 0.0]}}, {"type": "Feature", "properties": {"name": "Upminster Bridge Station", "description": "Upminster Bridge Station, London Underground Ltd., Upminster Rd, Hornchurch, Essex, RM12 6PL", "styleUrl": "#tubeStyle"}, "geometry": {"type": "Point", "coordinates": [0.23577122039991974, 51.55875050794734, 0.0]}}, {"type": "Feature", "properties": {"name": "Upney Station", "description": "Upney Station, London Underground Ltd., Upney Lane, Barking, Essex, IG11 9LS", "styleUrl": "#tubeStyle"}, "geometry": {"type": "Point", "coordinates": [0.10156562559142157, 51.53833531248827, 0.0]}}, {"type": "Feature", "properties": {"name": "Upton Park Station", "description": "Upton Park Station, London Underground Ltd., Green St, London, E13 9AP", "styleUrl": "#tubeStyle"}, "geometry": {"type": "Point", "coordinates": [0.035273180129164805, 51.5352333039211, 0.0]}}, {"type": "Feature", "properties": {"name": "Uxbridge Station", "description": "Uxbridge Station, London Underground Ltd., High St, Uxbridge, Middx, UB8 1JZ", "styleUrl": "#tubeStyle"}, "geometry": {"type": "Point", "coordinates": [-0.47813947213628244, 51.54649637046057, 0.0]}}, {"type": "Feature", "properties": {"name": "Vauxhall Station", "description": "Vauxhall Underground Station, London Underground Ltd., Vauxhall Cross, London, SE1", "styleUrl": "#tubeStyle"}, "geometry": {"type": "Point", "coordinates": [-0.1237489510305906, 51.48573337604027, 0.0]}}, {"type": "Feature", "properties": {"name": "Victoria Station", "description": "Victoria Underground Station, London Underground Ltd., Victoria St, London, SW1E 5ND", "styleUrl": "#tubeStyle"}, "geometry": {"type": "Point", "coordinates": [-0.14384485434014474, 51.496342174731, 0.0]}}, {"type": "Feature", "properties": {"name": "Walthamstow Central Station", "description": "Walthamstow Central Station BR Hoe St, London, E17 7LP", "styleUrl": "#tubeStyle"}, "geometry": {"type": "Point", "coordinates": [-0.019918639025007567, 51.58295470500257, 0.0]}}, {"type": "Feature", "properties": {"name": "Wanstead Station", "description": "Wanstead Underground Station, London Underground Ltd., The Green, London, E11 2NT", "styleUrl": "#tubeStyle"}, "geometry": {"type": "Point", "coordinates": [0.028745919335254173, 51.57552133692107, 0.0]}}, {"type": "Feature", "properties": {"name": "Wapping Station", "description": "Wapping Station, London Underground Ltd., Wapping High St, London, E1 9NQ", "styleUrl": "#tubeStyle"}, "geometry": {"type": "Point", "coordinates": [-0.05584625089664785, 51.504268283481814, 0.0]}}, {"type": "Feature", "properties": {"name": "Warren Street Station", "description": "Warren Street Station, London Underground Ltd., Tottenham Court Rd, London, NW1 3AA", "styleUrl": "#tubeStyle"}, "geometry": {"type": "Point", "coordinates": [-0.1382723133832134, 51.52451151754795, 0.0]}}, {"type": "Feature", "properties": {"name": "Warwick Avenue Station", "description": "Warwick Avenue Station, London Underground Ltd., Warwick Avenue, London, W9 2PT", "styleUrl": "#tubeStyle"}, "geometry": {"type": "Point", "coordinates": [-0.18367827068891482, 51.52327252274611, 0.0]}}, {"type": "Feature", "properties": {"name": "Waterloo Station", "description": "Waterloo Underground Station, London Underground Ltd., York Rd, London, SE1 7ND", "styleUrl": "#tubeStyle"}, "geometry": {"type": "Point", "coordinates": [-0.11406943580765903, 51.50350220717368, 0.0]}}, {"type": "Feature", "properties": {"name": "Watford Station", "description": "Watford Station, London Underground Ltd., Cassiobury Park Avenue, Watford, Herts, WD1 7LE", "styleUrl": "#tubeStyle"}, "geometry": {"type": "Point", "coordinates": [-0.41728063194595755, 51.65742097190649, 0.0]}}, {"type": "Feature", "properties": {"name": "Wembley Park Station", "description": "Wembley Park Station, London Underground Ltd., Bridge Road, Wembley, Middlesex, HA9 9AA", "styleUrl": "#tubeStyle"}, "geometry": {"type": "Point", "coordinates": [-0.279251008726512, 51.56326048395511, 0.0]}}, {"type": "Feature", "properties": {"name": "West Acton Station", "description": "West Acton Station, London Underground Ltd., Station Parade, London, W3 6UP", "styleUrl": "#tubeStyle"}, "geometry": {"type": "Point", "coordinates": [-0.28099328999187806, 51.51786058618788, 0.0]}}, {"type": "Feature", "properties": {"name": "West Brompton Station", "description": "West Brompton Station, London Underground Ltd., Old Brompton Rd, London, SW5 9JX", "styleUrl": "#tubeStyle"}, "geometry": {"type": "Point", "coordinates": [-0.19554083437395675, 51.487256950006746, 0.0]}}, {"type": "Feature", "properties": {"name": "West Finchley Station", "description": "West Finchley Station, London Underground Ltd., Nether Street, London, N3 1NT", "styleUrl": "#tubeStyle"}, "geometry": {"type": "Point", "coordinates": [-0.1884688697282333, 51.6094857097726, 0.0]}}, {"type": "Feature", "properties": {"name": "West Ham Station", "description": "West Ham Underground Station, London Underground Ltd., Manor Rd, London, E15 3BN", "styleUrl": "#tubeStyle"}, "geometry": {"type": "Point", "coordinates": [0.005039507096672237, 51.528181772941785, 0.0]}}, {"type": "Feature", "properties": {"name": "West Hampstead Station", "description": "West Hampstead Underground Station, London Underground Ltd., West End Lane, London, NW6 2LX", "styleUrl": "#tubeStyle"}, "geometry": {"type": "Point", "coordinates": [-0.1907498502564343, 51.546701979094905, 0.0]}}, {"type": "Feature", "properties": {"name": "West Harrow Station", "description": "West Harrow Station, London Underground Ltd., Vaughan Rd, Harrow, Middx, HA1 4HE", "styleUrl": "#tubeStyle"}, "geometry": {"type": "Point", "coordinates": [-0.3529206309854341, 51.579778193709345, 0.0]}}, {"type": "Feature", "properties": {"name": "West Kensington Station", "description": "West Kensington Station, London Underground Ltd., North End Rd, London, W14 9NL", "styleUrl": "#tubeStyle"}, "geometry": {"type": "Point", "coordinates": [-0.20647711470530122, 51.4904916857321, 0.0]}}, {"type": "Feature", "properties": {"name": "West Ruislip Station", "description": "West Ruislip Station, London Underground Ltd., Ickenham Rd, West Ruislip, Middlesex", "styleUrl": "#tubeStyle"}, "geometry": {"type": "Point", "coordinates": [-0.437886436759924, 51.56952886292043, 0.0]}}, {"type": "Feature", "properties": {"name": "Westbourne Park Station", "description": "Westbourne Park Station, London Underground Ltd., Western Rd, London, W11 1AB", "styleUrl": "#tubeStyle"}, "geometry": {"type": "Point", "coordinates": [-0.20088377146790443, 51.52092084952601, 0.0]}}, {"type": "Feature", "properties": {"name": "Westminster Station", "description": "Westminster Station, London Underground Ltd., Bridge St, London, SW1A 2JR", "styleUrl": "#tubeStyle"}, "geometry": {"type": "Point", "coordinates": [-0.12481826520069893, 51.50108458344646, 0.0]}}, {"type": "Feature", "properties": {"name": "White City Station", "description": "White City Station, London Underground Ltd., Wood Lane, London, W12 7RH", "styleUrl": "#tubeStyle"}, "geometry": {"type": "Point", "coordinates": [-0.22425431922798492, 51.511978113587034, 0.0]}}, {"type": "Feature", "properties": {"name": "Whitechapel Station", "description": "Whitechapel Station, London Underground Ltd., 277 Whitechapel Rd, London, E1 1BY", "styleUrl": "#tubeStyle"}, "geometry": {"type": "Point", "coordinates": [-0.059984982962259466, 51.51945524689079, 0.0]}}, {"type": "Feature", "properties": {"name": "Willesden Green Station", "description": "Willesden Green Station, London Underground Ltd., Walm Lane, London, NW2 4QT", "styleUrl": "#tubeStyle"}, "geometry": {"type": "Point", "coordinates": [-0.2224101520807993, 51.549308888247985, 0.0]}}, {"type": "Feature", "properties": {"name": "Wimbledon Park Station", "description": "Wimbledon Park Station, Arthur Rd, London, SW19", "styleUrl": "#tubeStyle"}, "geometry": {"type": "Point", "coordinates": [-0.19959527217312317, 51.43446418602544, 0.0]}}, {"type": "Feature", "properties": {"name": "Wood Green Station", "description": "Wood Green Station, London Underground Ltd., High Rd, Wood Green, London, N22 4HH", "styleUrl": "#tubeStyle"}, "geometry": {"type": "Point", "coordinates": [-0.10962638054844565, 51.59747603130841, 0.0]}}, {"type": "Feature", "properties": {"name": "Woodford Station", "description": "Woodford Station, London Underground Ltd., Snakes Lane, Woodford Green, Essex", "styleUrl": "#tubeStyle"}, "geometry": {"type": "Point", "coordinates": [0.034037144154079255, 51.60703336518101, 0.0]}}, {"type": "Feature", "properties": {"name": "Woodside Park Station", "description": "Woodside Park Station, London Underground Ltd., Woodside Park Rd, London, N12 8SE", "styleUrl": "#tubeStyle"}, "geometry": {"type": "Point", "coordinates": [-0.18542102750883854, 51.617811407382945, 0.0]}}, {"type": "Feature", "properties": {"name": "All Saints Station", "description": "London Underground, 55 Broadway, London, SW1H 0BD", "styleUrl": "#dlrStyle"}, "geometry": {"type": "Point", "coordinates": [-0.012751749577122285, 51.511010078082435, 0.0]}}, {"type": "Feature", "properties": {"name": "Beckton Station", "description": "London Underground, 55 Broadway, London, SW1H 0BD", "styleUrl": "#dlrStyle"}, "geometry": {"type": "Point", "coordinates": [0.06094244235996154, 51.51513328260473, 0.0]}}, {"type": "Feature", "properties": {"name": "Beckton Park Station", "description": "London Underground, 55 Broadway, London, SW1H 0BD", "styleUrl": "#dlrStyle"}, "geometry": {"type": "Point", "coordinates": [0.05489774670154237, 51.50894379267658, 0.0]}}, {"type": "Feature", "properties": {"name": "Blackwall Station", "description": "London Underground, 55 Broadway, London, SW1H 0BD", "styleUrl": "#dlrStyle"}, "geometry": {"type": "Point", "coordinates": [-0.007108496961494498, 51.50821611461839, 0.0]}}, {"type": "Feature", "properties": {"name": "Bow Church Station", "description": "London Underground, 55 Broadway, London, SW1H 0BD", "styleUrl": "#dlrStyle"}, "geometry": {"type": "Point", "coordinates": [-0.02069142439387218, 51.527333106708156, 0.0]}}, {"type": "Feature", "properties": {"name": "Bromley-By-Bow Station", "description": "London Underground, 55 Broadway, London, SW1H 0BD", "styleUrl": "#tubeStyle"}, "geometry": {"type": "Point", "coordinates": [-0.011661937058285865, 51.52476993755734, 0.0]}}, {"type": "Feature", "properties": {"name": "Crossharbour & London Arena Station", "description": "London Underground, 55 Broadway, London, SW1H 0BD", "styleUrl": "#dlrStyle"}, "geometry": {"type": "Point", "coordinates": [-0.014614325661385942, 51.4956983741163, 0.0]}}, {"type": "Feature", "properties": {"name": "Custom House Station", "description": "London Underground, 55 Broadway, London, SW1H 0BD", "styleUrl": "#dlrStyle"}, "geometry": {"type": "Point", "coordinates": [0.027684411363851223, 51.50954381696438, 0.0]}}, {"type": "Feature", "properties": {"name": "Cutty Sark Station", "description": "London Underground, 55 Broadway, London, SW1H 0BD", "styleUrl": "#dlrStyle"}, "geometry": {"type": "Point", "coordinates": [-0.01085877270808698, 51.481694371850814, 0.0]}}, {"type": "Feature", "properties": {"name": "Cyprus Station", "description": "London Underground, 55 Broadway, London, SW1H 0BD", "styleUrl": "#dlrStyle"}, "geometry": {"type": "Point", "coordinates": [0.06353851971712263, 51.50879193027477, 0.0]}}, {"type": "Feature", "properties": {"name": "Deptford Bridge Station", "description": "London Underground, 55 Broadway, London, SW1H 0BD", "styleUrl": "#dlrStyle"}, "geometry": {"type": "Point", "coordinates": [-0.021550621322944774, 51.474284721273506, 0.0]}}, {"type": "Feature", "properties": {"name": "Devons Road Station", "description": "London Underground, 55 Broadway, London, SW1H 0BD", "styleUrl": "#dlrStyle"}, "geometry": {"type": "Point", "coordinates": [-0.017224616322978142, 51.52217508054479, 0.0]}}, {"type": "Feature", "properties": {"name": "East India Station", "description": "London Underground, 55 Broadway, London, SW1H 0BD", "styleUrl": "#dlrStyle"}, "geometry": {"type": "Point", "coordinates": [-0.002748663563422358, 51.50904124910798, 0.0]}}, {"type": "Feature", "properties": {"name": "Edgware Road Bakerloo Station", "description": "London Underground, 55 Broadway, London, SW1H 0BD", "styleUrl": "#tubeStyle"}, "geometry": {"type": "Point", "coordinates": [-0.17013507301191544, 51.520183893832, 0.0]}}, {"type": "Feature", "properties": {"name": "Edgware Road Circle Station", "description": "London Underground, 55 Broadway, London, SW1H 0BD", "styleUrl": "#tubeStyle"}, "geometry": {"type": "Point", "coordinates": [-0.1676661307375839, 51.519920474367346, 0.0]}}, {"type": "Feature", "properties": {"name": "Elverson Road Station", "description": "London Underground, 55 Broadway, London, SW1H 0BD", "styleUrl": "#dlrStyle"}, "geometry": {"type": "Point", "coordinates": [-0.017467307436164158, 51.46881942759032, 0.0]}}, {"type": "Feature", "properties": {"name": "Gallions Reach Station", "description": "London Underground, 55 Broadway, London, SW1H 0BD", "styleUrl": "#dlrStyle"}, "geometry": {"type": "Point", "coordinates": [0.07222003294786511, 51.509538091545025, 0.0]}}, {"type": "Feature", "properties": {"name": "Greenwich Station", "description": "London Underground, 55 Broadway, London, SW1H 0BD", "styleUrl": "#dlrStyle"}, "geometry": {"type": "Point", "coordinates": [-0.014198816568398007, 51.47775781635025, 0.0]}}, {"type": "Feature", "properties": {"name": "Gunnersbury Station", "description": "London Underground, 55 Broadway, London, SW1H 0BD", "styleUrl": "#tubeStyle"}, "geometry": {"type": "Point", "coordinates": [-0.2751750347956584, 51.49179310432604, 0.0]}}, {"type": "Feature", "properties": {"name": "Hammersmith Station", "description": "London Underground, 55 Broadway, London, SW1H 0BD", "styleUrl": "#tubeStyle"}, "geometry": {"type": "Point", "coordinates": [-0.22493007106495347, 51.493497772006556, 0.0]}}, {"type": "Feature", "properties": {"name": "Hammersmith (D & P) Station", "description": "London Underground, 55 Broadway, London, SW1H 0BD", "styleUrl": "#tubeStyle"}, "geometry": {"type": "Point", "coordinates": [-0.22240173052421416, 51.492569079748954, 0.0]}}, {"type": "Feature", "properties": {"name": "Harlesden Station", "description": "London Underground, 55 Broadway, London, SW1H 0BD", "styleUrl": "#tubeStyle"}, "geometry": {"type": "Point", "coordinates": [-0.25750275515492754, 51.53619291015474, 0.0]}}, {"type": "Feature", "properties": {"name": "Harrow & Wealdstone Station", "description": "London Underground, 55 Broadway, London, SW1H 0BD", "styleUrl": "#tubeStyle"}, "geometry": {"type": "Point", "coordinates": [-0.3352311662416417, 51.59220882796488, 0.0]}}, {"type": "Feature", "properties": {"name": "Harrow on the Hill Station", "description": "London Underground, 55 Broadway, London, SW1H 0BD", "styleUrl": "#tubeStyle"}, "geometry": {"type": "Point", "coordinates": [-0.3370159042568268, 51.57932886728114, 0.0]}}, {"type": "Feature", "properties": {"name": "Heathrow Terminals 1, 2, 3 Station", "description": "London Underground, 55 Broadway, London, SW1H 0BD", "styleUrl": "#tubeStyle"}, "geometry": {"type": "Point", "coordinates": [-0.4524391309616831, 51.47121921006041, 0.0]}}, {"type": "Feature", "properties": {"name": "Heron Quays Station", "description": "London Underground, 55 Broadway, London, SW1H 0BD", "styleUrl": "#dlrStyle"}, "geometry": {"type": "Point", "coordinates": [-0.021744064999687465, 51.50306791529919, 0.0]}}, {"type": "Feature", "properties": {"name": "Island Gardens Station", "description": "London Underground, 55 Broadway, London, SW1H 0BD", "styleUrl": "#dlrStyle"}, "geometry": {"type": "Point", "coordinates": [-0.009489509781986224, 51.486671636732005, 0.0]}}, {"type": "Feature", "properties": {"name": "Kensal Green Station", "description": "London Underground, 55 Broadway, London, SW1H 0BD", "styleUrl": "#tubeStyle"}, "geometry": {"type": "Point", "coordinates": [-0.22471696470316385, 51.53045766611699, 0.0]}}, {"type": "Feature", "properties": {"name": "Kensington (Olympia) Station", "description": "London Underground, 55 Broadway, London, SW1H 0BD", "styleUrl": "#tubeStyle"}, "geometry": {"type": "Point", "coordinates": [-0.21038252311747127, 51.49780916738491, 0.0]}}, {"type": "Feature", "properties": {"name": "Kenton Station", "description": "London Underground, 55 Broadway, London, SW1H 0BD", "styleUrl": "#tubeStyle"}, "geometry": {"type": "Point", "coordinates": [-0.3171644058579785, 51.58178846260141, 0.0]}}, {"type": "Feature", "properties": {"name": "Kew Gardens Station", "description": "London Underground, 55 Broadway, London, SW1H 0BD", "styleUrl": "#tubeStyle"}, "geometry": {"type": "Point", "coordinates": [-0.28525232821468915, 51.47702993015285, 0.0]}}, {"type": "Feature", "properties": {"name": "King's Cross St. Pancras Station", "description": "London Underground, 55 Broadway, London, SW1H 0BD", "styleUrl": "#tubeStyle"}, "geometry": {"type": "Point", "coordinates": [-0.12385794814245299, 51.530397237917526, 0.0]}}, {"type": "Feature", "properties": {"name": "Lewisham Station", "description": "London Underground, 55 Broadway, London, SW1H 0BD", "styleUrl": "#dlrStyle"}, "geometry": {"type": "Point", "coordinates": [-0.014706587477352798, 51.466074537491664, 0.0]}}, {"type": "Feature", "properties": {"name": "Limehouse Station", "description": "London Underground, 55 Broadway, London, SW1H 0BD", "styleUrl": "#dlrStyle"}, "geometry": {"type": "Point", "coordinates": [-0.03971257657431441, 51.51249851749616, 0.0]}}, {"type": "Feature", "properties": {"name": "Mudchute Station", "description": "London Underground, 55 Broadway, London, SW1H 0BD", "styleUrl": "#dlrStyle"}, "geometry": {"type": "Point", "coordinates": [-0.01509121470162963, 51.49036417963112, 0.0]}}, {"type": "Feature", "properties": {"name": "New Cross Station", "description": "London Underground, 55 Broadway, London, SW1H 0BD", "styleUrl": "#tubeStyle"}, "geometry": {"type": "Point", "coordinates": [-0.03259457075859516, 51.47667420245573, 0.0]}}, {"type": "Feature", "properties": {"name": "New Cross Gate Station", "description": "London Underground, 55 Broadway, London, SW1H 0BD", "styleUrl": "#tubeStyle"}, "geometry": {"type": "Point", "coordinates": [-0.040299579158885705, 51.47533738470145, 0.0]}}, {"type": "Feature", "properties": {"name": "North Wembley Station", "description": "London Underground, 55 Broadway, London, SW1H 0BD", "styleUrl": "#tubeStyle"}, "geometry": {"type": "Point", "coordinates": [-0.3041557353826293, 51.562490285575436, 0.0]}}, {"type": "Feature", "properties": {"name": "Poplar Station", "description": "London Underground, 55 Broadway, London, SW1H 0BD", "styleUrl": "#dlrStyle"}, "geometry": {"type": "Point", "coordinates": [-0.01722877373686347, 51.50748844327703, 0.0]}}, {"type": "Feature", "properties": {"name": "Prince Regent Station", "description": "London Underground, 55 Broadway, London, SW1H 0BD", "styleUrl": "#dlrStyle"}, "geometry": {"type": "Point", "coordinates": [0.03329548451423242, 51.50932066546096, 0.0]}}, {"type": "Feature", "properties": {"name": "Pudding Mill Lane Station", "description": "London Underground, 55 Broadway, London, SW1H 0BD", "styleUrl": "#dlrStyle"}, "geometry": {"type": "Point", "coordinates": [-0.01317422837946622, 51.5344008408679, 0.0]}}, {"type": "Feature", "properties": {"name": "Queen's Park Station", "description": "London Underground, 55 Broadway, London, SW1H 0BD", "styleUrl": "#tubeStyle"}, "geometry": {"type": "Point", "coordinates": [-0.2047040902342027, 51.534100903446934, 0.0]}}, {"type": "Feature", "properties": {"name": "Richmond Station", "description": "London Underground, 55 Broadway, London, SW1H 0BD", "styleUrl": "#tubeStyle"}, "geometry": {"type": "Point", "coordinates": [-0.3017542176868921, 51.46315964085974, 0.0]}}, {"type": "Feature", "properties": {"name": "Royal Albert Station", "description": "London Underground, 55 Broadway, London, SW1H 0BD", "styleUrl": "#dlrStyle"}, "geometry": {"type": "Point", "coordinates": [0.04621659355798654, 51.50819634436704, 0.0]}}, {"type": "Feature", "properties": {"name": "Royal Victoria Station", "description": "London Underground, 55 Broadway, London, SW1H 0BD", "styleUrl": "#dlrStyle"}, "geometry": {"type": "Point", "coordinates": [0.018078557359541534, 51.509062110622175, 0.0]}}, {"type": "Feature", "properties": {"name": "Shepherd's Bush Central Station", "description": "London Underground, 55 Broadway, London, SW1H 0BD", "styleUrl": "#tubeStyle"}, "geometry": {"type": "Point", "coordinates": [-0.22630545901777493, 51.505560868490754, 0.0]}}, {"type": "Feature", "properties": {"name": "Shepherd's Bush Hammersmith & City Station", "description": "London Underground, 55 Broadway, London, SW1H 0BD", "styleUrl": "#tubeStyle"}, "geometry": {"type": "Point", "coordinates": [-0.22630545901777493, 51.505560868490754, 0.0]}}, {"type": "Feature", "properties": {"name": "South Kenton Station", "description": "London Underground, 55 Broadway, London, SW1H 0BD", "styleUrl": "#tubeStyle"}, "geometry": {"type": "Point", "coordinates": [-0.30858867502021503, 51.57017168687136, 0.0]}}, {"type": "Feature", "properties": {"name": "South Quay Station", "description": "London Underground, 55 Broadway, London, SW1H 0BD", "styleUrl": "#dlrStyle"}, "geometry": {"type": "Point", "coordinates": [-0.019101694079593994, 51.50053201100865, 0.0]}}, {"type": "Feature", "properties": {"name": "St. James's Park Station", "description": "London Underground, 55 Broadway, London, SW1H 0BD", "styleUrl": "#tubeStyle"}, "geometry": {"type": "Point", "coordinates": [-0.13418374411553172, 51.499345456140375, 0.0]}}, {"type": "Feature", "properties": {"name": "St. John's Wood Station", "description": "London Underground, 55 Broadway, London, SW1H 0BD", "styleUrl": "#tubeStyle"}, "geometry": {"type": "Point", "coordinates": [-0.17417235633672976, 51.53456451631533, 0.0]}}, {"type": "Feature", "properties": {"name": "St. Paul's Station", "description": "London Underground, 55 Broadway, London, SW1H 0BD", "styleUrl": "#tubeStyle"}, "geometry": {"type": "Point", "coordinates": [-0.09757365447760419, 51.514801296733296, 0.0]}}, {"type": "Feature", "properties": {"name": "Stonebridge Park Station", "description": "London Underground, 55 Broadway, London, SW1H 0BD", "styleUrl": "#tubeStyle"}, "geometry": {"type": "Point", "coordinates": [-0.27540924757983426, 51.54392228583471, 0.0]}}, {"type": "Feature", "properties": {"name": "Tower Gateway Station", "description": "London Underground, 55 Broadway, London, SW1H 0BD", "styleUrl": "#dlrStyle"}, "geometry": {"type": "Point", "coordinates": [-0.07453096096556094, 51.51056663876308, 0.0]}}, {"type": "Feature", "properties": {"name": "Wembley Central Station", "description": "London Underground, 55 Broadway, London, SW1H 0BD", "styleUrl": "#tubeStyle"}, "geometry": {"type": "Point", "coordinates": [-0.2968594453731958, 51.552329965978, 0.0]}}, {"type": "Feature", "properties": {"name": "West India Quay Station", "description": "London Underground, 55 Broadway, London, SW1H 0BD", "styleUrl": "#dlrStyle"}, "geometry": {"type": "Point", "coordinates": [-0.0201480811370715, 51.50663843932786, 0.0]}}, {"type": "Feature", "properties": {"name": "Westferry Station", "description": "London Underground, 55 Broadway, London, SW1H 0BD", "styleUrl": "#dlrStyle"}, "geometry": {"type": "Point", "coordinates": [-0.025791956499847963, 51.509431782335305, 0.0]}}, {"type": "Feature", "properties": {"name": "Willesden Junction Station", "description": "London Underground, 55 Broadway, London, SW1H 0BD", "styleUrl": "#tubeStyle"}, "geometry": {"type": "Point", "coordinates": [-0.2442888945170346, 51.53219149710364, 0.0]}}, {"type": "Feature", "properties": {"name": "Wimbledon Station", "description": "London Underground, 55 Broadway, London, SW1H 0BD", "styleUrl": "#tubeStyle"}, "geometry": {"type": "Point", "coordinates": [-0.20638158690359198, 51.42138371953177, 0.0]}}], "name": "Londonstations"}